{
  "stores": [
    {
      "id": "coles-pointcook-1",
      "retailer": "Coles",
      "name": "Coles Sanctuary Lakes",
      "address": "Point Cook Rd & Jamieson Wy, Sanctuary Lakes Shopping Centre, Point Cook VIC 3030",
      "latitude": -37.8958929,
      "longitude": 144.7531746,
      "suburb": "Point Cook",
      "state": "VIC",
      "postcode": "3030"
    },
    {
      "id": "coles-pointcook-2",
      "retailer": "Coles",
      "name": "Coles Point Cook",
      "address": "5 Main St, Point Cook VIC 3030",
      "latitude": -37.8825716,
      "longitude": 144.7349062,
      "suburb": "Point Cook",
      "state": "VIC",
      "postcode": "3030"
    },
    {
      "id": "coles-pointcook-3",
      "retailer": "Coles",
      "name": "Coles Central Square",
      "address": "Central Ave, Altona Meadows VIC 3028",
      "latitude": -37.8732829,
      "longitude": 144.7758402,
      "suburb": "Point Cook",
      "state": "VIC",
      "postcode": "3028"
    },
    {
      "id": "coles-pointcook-4",
      "retailer": "Coles",
      "name": "Coles Hoppers Crossing",
      "address": "50 Old Geelong Rd, Hoppers Crossing VIC 3029",
      "latitude": -37.881793,
      "longitude": 144.7034108,
      "suburb": "Point Cook",
      "state": "VIC",
      "postcode": "3029"
    },
    {
      "id": "coles-pointcook-5",
      "retailer": "Coles",
      "name": "Coles Altona",
      "address": "Pier St &, Queen St, Altona VIC 3018",
      "latitude": -37.8688929,
      "longitude": 144.8297301,
      "suburb": "Point Cook",
      "state": "VIC",
      "postcode": "3018"
    },
    {
      "id": "coles-pointcook-6",
      "retailer": "Coles",
      "name": "Coles Wyndham Village",
      "address": "380 Sayers Rd, Tarneit VIC 3029",
      "latitude": -37.8492067,
      "longitude": 144.7034944,
      "suburb": "Point Cook",
      "state": "VIC",
      "postcode": "3029"
    },
    {
      "id": "coles-pointcook-7",
      "retailer": "Coles",
      "name": "Coles Tarneit West",
      "address": "Tarneit Rd &, Hogans Rd, Tarneit VIC 3029",
      "latitude": -37.8597222,
      "longitude": 144.6663889,
      "suburb": "Point Cook",
      "state": "VIC",
      "postcode": "3029"
    },
    {
      "id": "coles-pointcook-8",
      "retailer": "Coles",
      "name": "Liquorland Point Cook (Coles)",
      "address": "300 Point Cook Road Cnr Point Cook Rd &, Jamieson Way, Point Cook VIC 3030",
      "latitude": -37.8953338,
      "longitude": 144.7526675,
      "suburb": "Point Cook",
      "state": "VIC",
      "postcode": "3030"
    },
    {
      "id": "coles-pointcook-9",
      "retailer": "Coles",
      "name": "Coles Tarneit Central",
      "address": "Corner Leakes Rd &, 540 Derrimut Rd, Tarneit VIC 3029",
      "latitude": -37.8372993,
      "longitude": 144.6913379,
      "suburb": "Point Cook",
      "state": "VIC",
      "postcode": "3029"
    },
    {
      "id": "coles-pointcook-10",
      "retailer": "Coles",
      "name": "Coles Werribee",
      "address": "143 Watton St, Werribee VIC 3030",
      "latitude": -37.9029274,
      "longitude": 144.6590022,
      "suburb": "Point Cook",
      "state": "VIC",
      "postcode": "3030"
    },
    {
      "id": "coles-werribee-1",
      "retailer": "Coles",
      "name": "Coles Werribee Plaza",
      "address": "Shop T - 058 Derrimut Rd, Hoppers Crossing VIC 3029",
      "latitude": -37.8749272,
      "longitude": 144.6793769,
      "suburb": "Werribee",
      "state": "VIC",
      "postcode": "3029"
    },
    {
      "id": "coles-tarneit-1",
      "retailer": "Coles",
      "name": "Coles Truganina",
      "address": "185 Woods Rd, Truganina VIC 3029",
      "latitude": -37.8202446,
      "longitude": 144.7213411,
      "suburb": "Tarneit",
      "state": "VIC",
      "postcode": "3029"
    },
    {
      "id": "coles-williamslanding-1",
      "retailer": "Coles",
      "name": "Shell Coles Express Laverton",
      "address": "26 Ailsa St S, Laverton VIC 3028",
      "latitude": -37.8693721,
      "longitude": 144.7619138,
      "suburb": "Williams Landing",
      "state": "VIC",
      "postcode": "3028"
    },
    {
      "id": "coles-altona-1",
      "retailer": "Coles",
      "name": "Coles Altona Gate",
      "address": "Millers Rd &, Duosa Rd, Altona North VIC 3025",
      "latitude": -37.8282666,
      "longitude": 144.8480493,
      "suburb": "Altona",
      "state": "VIC",
      "postcode": "3025"
    },
    {
      "id": "coles-altona-2",
      "retailer": "Coles",
      "name": "Coles Williamstown",
      "address": "29 Douglas Parade, Williamstown VIC 3016",
      "latitude": -37.8574938,
      "longitude": 144.8968806,
      "suburb": "Altona",
      "state": "VIC",
      "postcode": "3016"
    },
    {
      "id": "coles-altonanorth-1",
      "retailer": "Coles",
      "name": "Coles Yarraville",
      "address": "Williamstown Rd &, High St, Yarraville VIC 3013",
      "latitude": -37.8169444,
      "longitude": 144.8811111,
      "suburb": "Altona North",
      "state": "VIC",
      "postcode": "3013"
    },
    {
      "id": "coles-footscray-1",
      "retailer": "Coles",
      "name": "Coles Footscray",
      "address": "Albert St & corner, Paisley St, Footscray VIC 3011",
      "latitude": -37.8010597,
      "longitude": 144.8974456,
      "suburb": "Footscray",
      "state": "VIC",
      "postcode": "3011"
    },
    {
      "id": "coles-footscray-2",
      "retailer": "Coles",
      "name": "Coles Braybrook",
      "address": "67 Ashley St, Braybrook VIC 3019",
      "latitude": -37.7934932,
      "longitude": 144.860842,
      "suburb": "Footscray",
      "state": "VIC",
      "postcode": "3019"
    },
    {
      "id": "coles-footscray-3",
      "retailer": "Coles",
      "name": "Coles Showgrounds Village",
      "address": "320 Epsom Rd Showgrounds Village, Flemington VIC 3031",
      "latitude": -37.7822222,
      "longitude": 144.915,
      "suburb": "Footscray",
      "state": "VIC",
      "postcode": "3031"
    },
    {
      "id": "coles-footscray-4",
      "retailer": "Coles",
      "name": "Coles Braybrook Ballarat Rd",
      "address": "Homeco, 330 Ballarat Rd, Braybrook VIC 3019",
      "latitude": -37.7778857,
      "longitude": 144.8515465,
      "suburb": "Footscray",
      "state": "VIC",
      "postcode": "3019"
    },
    {
      "id": "coles-footscray-5",
      "retailer": "Coles",
      "name": "Coles Highpoint",
      "address": "Highpoint Shopping Centre, Shop L03 3545/200 Rosamond Rd, Maribyrnong VIC 3032",
      "latitude": -37.7753205,
      "longitude": 144.8868655,
      "suburb": "Footscray",
      "state": "VIC",
      "postcode": "3545"
    },
    {
      "id": "coles-footscray-6",
      "retailer": "Coles",
      "name": "Coles Avondale Heights",
      "address": "53-65 Military Rd, Avondale Heights VIC 3034",
      "latitude": -37.7674633,
      "longitude": 144.8633734,
      "suburb": "Footscray",
      "state": "VIC",
      "postcode": "3034"
    },
    {
      "id": "coles-yarraville-1",
      "retailer": "Coles",
      "name": "Coles Ardeer",
      "address": "The Avenue &, Corella Rd, Sunshine West VIC 3023",
      "latitude": -37.7976871,
      "longitude": 144.8060226,
      "suburb": "Yarraville",
      "state": "VIC",
      "postcode": "3023"
    },
    {
      "id": "coles-williamstown-1",
      "retailer": "Coles",
      "name": "Coles Port Melbourne",
      "address": "Bay &, Liardet St, Port Melbourne VIC 3207",
      "latitude": -37.8388305,
      "longitude": 144.9418181,
      "suburb": "Williamstown",
      "state": "VIC",
      "postcode": "3207"
    },
    {
      "id": "coles-sunshine-1",
      "retailer": "Coles",
      "name": "Coles Derrimut Village",
      "address": "Derrimut Village, Mt Derrimut Rd &, Foleys Rd, Deer Park VIC 3023",
      "latitude": -37.7836462,
      "longitude": 144.7714593,
      "suburb": "Sunshine",
      "state": "VIC",
      "postcode": "3023"
    },
    {
      "id": "coles-sunshine-2",
      "retailer": "Coles",
      "name": "Shell Coles Express Ardeer",
      "address": "1-5 The Avenue (Corner, Fitzgerald Rd, Ardeer VIC 3022",
      "latitude": -37.7963568,
      "longitude": 144.7901247,
      "suburb": "Sunshine",
      "state": "VIC",
      "postcode": "3022"
    },
    {
      "id": "coles-sunshine-3",
      "retailer": "Coles",
      "name": "Coles Cairnlea",
      "address": "100 Furlong Rd, Cairnlea VIC 3023",
      "latitude": -37.7588886,
      "longitude": 144.7900576,
      "suburb": "Sunshine",
      "state": "VIC",
      "postcode": "3023"
    },
    {
      "id": "coles-sunshinewest-1",
      "retailer": "Coles",
      "name": "Coles DC",
      "address": "12-18 Distribution Dr, Truganina VIC 3029",
      "latitude": -37.8159632,
      "longitude": 144.7598138,
      "suburb": "Sunshine West",
      "state": "VIC",
      "postcode": "3029"
    },
    {
      "id": "coles-stalbans-1",
      "retailer": "Coles",
      "name": "Coles Burnside",
      "address": "Western Hwy &, Westwood Dr, Burnside VIC 3023",
      "latitude": -37.7590904,
      "longitude": 144.7539084,
      "suburb": "St Albans",
      "state": "VIC",
      "postcode": "3023"
    },
    {
      "id": "coles-stalbans-2",
      "retailer": "Coles",
      "name": "Coles Brimbank",
      "address": "Neale Rd, Deer Park VIC 3021",
      "latitude": -37.7515487,
      "longitude": 144.7756347,
      "suburb": "St Albans",
      "state": "VIC",
      "postcode": "3021"
    },
    {
      "id": "coles-stalbans-3",
      "retailer": "Coles",
      "name": "Coles Caroline Springs",
      "address": "Lake St, Caroline Springs VIC 3037",
      "latitude": -37.7323121,
      "longitude": 144.7426373,
      "suburb": "St Albans",
      "state": "VIC",
      "postcode": "3037"
    },
    {
      "id": "coles-stalbans-4",
      "retailer": "Coles",
      "name": "Coles Keilor Downs",
      "address": "80 Taylors Rd, Keilor Downs VIC 3038",
      "latitude": -37.727413,
      "longitude": 144.8066627,
      "suburb": "St Albans",
      "state": "VIC",
      "postcode": "3038"
    },
    {
      "id": "coles-stalbans-5",
      "retailer": "Coles",
      "name": "Coles Taylors Hill",
      "address": "Gourlay Rd, Taylors Hill VIC 3037",
      "latitude": -37.7114372,
      "longitude": 144.7416076,
      "suburb": "St Albans",
      "state": "VIC",
      "postcode": "3037"
    },
    {
      "id": "coles-carolinesprings-1",
      "retailer": "Coles",
      "name": "Coles Woodlea",
      "address": "Woodlea Devlopment, Town Centre, Woodlea Bvd, Aintree VIC 3336",
      "latitude": -37.7226943,
      "longitude": 144.6701354,
      "suburb": "Caroline Springs",
      "state": "VIC",
      "postcode": "3336"
    },
    {
      "id": "coles-carolinesprings-2",
      "retailer": "Coles",
      "name": "Shell Coles Express Burnside",
      "address": "15-23 Eucumbene Dr, Ravenhall VIC 3023",
      "latitude": -37.7578441,
      "longitude": 144.7428094,
      "suburb": "Caroline Springs",
      "state": "VIC",
      "postcode": "3023"
    },
    {
      "id": "coles-melton-1",
      "retailer": "Coles",
      "name": "Coles Cobblebank",
      "address": "201-243 Ferris Road, opposite Western BACE Shopping Centre, Toolern Street, Cobblebank VIC 3338",
      "latitude": -37.7140545,
      "longitude": 144.6020431,
      "suburb": "Melton",
      "state": "VIC",
      "postcode": "3338"
    },
    {
      "id": "coles-melton-2",
      "retailer": "Coles",
      "name": "Coles Woodgrove",
      "address": "Shop R01/533-555 Coburns Rd, Melton VIC 3337",
      "latitude": -37.6856726,
      "longitude": 144.5659065,
      "suburb": "Melton",
      "state": "VIC",
      "postcode": "3337"
    },
    {
      "id": "coles-melton-3",
      "retailer": "Coles",
      "name": "Coles Melton South (Station Square)",
      "address": "Melton Station Square Shopping Centre, 11/25 Station Rd, Melton South VIC 3338",
      "latitude": -37.7018247,
      "longitude": 144.574416,
      "suburb": "Melton",
      "state": "VIC",
      "postcode": "3338"
    },
    {
      "id": "coles-melton-4",
      "retailer": "Coles",
      "name": "Coles Bacchus Marsh",
      "address": "Young St, Bacchus Marsh VIC 3340",
      "latitude": -37.6752458,
      "longitude": 144.4406781,
      "suburb": "Melton",
      "state": "VIC",
      "postcode": "3340"
    },
    {
      "id": "coles-melton-5",
      "retailer": "Coles",
      "name": "Coles Express Melton South",
      "address": "1 Station Rd, Melton South VIC 3338",
      "latitude": -37.7026849,
      "longitude": 144.5748533,
      "suburb": "Melton",
      "state": "VIC",
      "postcode": "3338"
    },
    {
      "id": "coles-sydenham-1",
      "retailer": "Coles",
      "name": "Shell Coles Express Melton Hwy (Taylors Lakes)",
      "address": "25 Melton Hwy, Taylors Lakes VIC 3038",
      "latitude": -37.7012089,
      "longitude": 144.7968657,
      "suburb": "Sydenham",
      "state": "VIC",
      "postcode": "3038"
    },
    {
      "id": "coles-sunbury-1",
      "retailer": "Coles",
      "name": "Coles Merrifield",
      "address": "200 Donnybrook Rd, Mickleham VIC 3064",
      "latitude": -37.536585,
      "longitude": 144.919602,
      "suburb": "Sunbury",
      "state": "VIC",
      "postcode": "3064"
    },
    {
      "id": "coles-sunbury-2",
      "retailer": "Coles",
      "name": "Coles Craigieburn",
      "address": "Craigieburn Rd &, Craigieburn Central, Windrock Ave, Craigieburn VIC 3064",
      "latitude": -37.5920095,
      "longitude": 144.9154957,
      "suburb": "Sunbury",
      "state": "VIC",
      "postcode": "3064"
    },
    {
      "id": "coles-sunbury-3",
      "retailer": "Coles",
      "name": "Coles Broadmeadows",
      "address": "1099-1169 Pascoe Vale Rd, Broadmeadows VIC 3047",
      "latitude": -37.68019,
      "longitude": 144.919505,
      "suburb": "Sunbury",
      "state": "VIC",
      "postcode": "3047"
    },
    {
      "id": "coles-sunbury-4",
      "retailer": "Coles",
      "name": "Coles Greenvale",
      "address": "Shopping Centre, 1 - 11 Greenvale Dr, Greenvale VIC 3059",
      "latitude": -37.6393515,
      "longitude": 144.8823369,
      "suburb": "Sunbury",
      "state": "VIC",
      "postcode": "3059"
    },
    {
      "id": "coles-sunbury-5",
      "retailer": "Coles",
      "name": "Coles Roxburgh Park",
      "address": "Somerton Rd, Roxburgh Park VIC 3064",
      "latitude": -37.6384828,
      "longitude": 144.9323531,
      "suburb": "Sunbury",
      "state": "VIC",
      "postcode": "3064"
    },
    {
      "id": "coles-sunbury-6",
      "retailer": "Coles",
      "name": "Coles Craigieburn Village",
      "address": "Craigieburn North, 330 Brookfield Blvd, Craigieburn VIC 3064",
      "latitude": -37.573384,
      "longitude": 144.899746,
      "suburb": "Sunbury",
      "state": "VIC",
      "postcode": "3064"
    },
    {
      "id": "coles-sunbury-7",
      "retailer": "Coles",
      "name": "Coles Sunbury",
      "address": "Evans St &, Riddell Rd, Sunbury VIC 3429",
      "latitude": -37.5785618,
      "longitude": 144.729951,
      "suburb": "Sunbury",
      "state": "VIC",
      "postcode": "3429"
    },
    {
      "id": "coles-sunbury-8",
      "retailer": "Coles",
      "name": "Coles Gisborne",
      "address": "10-20 Aitken St, Gisborne VIC 3437",
      "latitude": -37.4853372,
      "longitude": 144.5906125,
      "suburb": "Sunbury",
      "state": "VIC",
      "postcode": "3437"
    },
    {
      "id": "coles-coburg-1",
      "retailer": "Coles",
      "name": "Coles Coburg",
      "address": "451-459 Sydney Rd, Coburg VIC 3058",
      "latitude": -37.7424884,
      "longitude": 144.9660641,
      "suburb": "Coburg",
      "state": "VIC",
      "postcode": "3058"
    },
    {
      "id": "coles-coburg-2",
      "retailer": "Coles",
      "name": "Coles Coburg North",
      "address": "Coburg North Village, Gaffney St, Coburg North VIC 3058",
      "latitude": -37.7319236,
      "longitude": 144.9504106,
      "suburb": "Coburg",
      "state": "VIC",
      "postcode": "3058"
    },
    {
      "id": "coles-coburg-3",
      "retailer": "Coles",
      "name": "Coles Essendon",
      "address": "1144/1146 Mt Alexander Rd, Essendon VIC 3040",
      "latitude": -37.7438368,
      "longitude": 144.9107073,
      "suburb": "Coburg",
      "state": "VIC",
      "postcode": "3040"
    },
    {
      "id": "coles-coburg-4",
      "retailer": "Coles",
      "name": "Coles Moonee Ponds",
      "address": "Cnr of Homer St &, Eddy St, Moonee Ponds VIC 3039",
      "latitude": -37.7644233,
      "longitude": 144.9219867,
      "suburb": "Coburg",
      "state": "VIC",
      "postcode": "3039"
    },
    {
      "id": "coles-coburg-5",
      "retailer": "Coles",
      "name": "Coles Northcote",
      "address": "Separation St (Dennis Street Northcote Plaza Shopping Centre, Northcote VIC 3070",
      "latitude": -37.7674466,
      "longitude": 145.0017915,
      "suburb": "Coburg",
      "state": "VIC",
      "postcode": "3070"
    },
    {
      "id": "coles-coburg-6",
      "retailer": "Coles",
      "name": "Coles Coburg Parking",
      "address": "16 Waterfield St, Coburg VIC 3058",
      "latitude": -37.7419753,
      "longitude": 144.9652952,
      "suburb": "Coburg",
      "state": "VIC",
      "postcode": "3058"
    },
    {
      "id": "coles-coburg-7",
      "retailer": "Coles",
      "name": "Coles Brunswick East",
      "address": "127-137 Nicholson St, Brunswick East VIC 3057",
      "latitude": -37.7719268,
      "longitude": 144.9780691,
      "suburb": "Coburg",
      "state": "VIC",
      "postcode": "3057"
    },
    {
      "id": "coles-brunswick-1",
      "retailer": "Coles",
      "name": "Coles Union Square",
      "address": "190 Union St, Brunswick VIC 3055",
      "latitude": -37.772096,
      "longitude": 144.9487769,
      "suburb": "Brunswick",
      "state": "VIC",
      "postcode": "3055"
    },
    {
      "id": "coles-brunswick-2",
      "retailer": "Coles",
      "name": "Coles Barkly Square",
      "address": "90/106 Sydney Rd, Brunswick VIC 3056",
      "latitude": -37.7760315,
      "longitude": 144.9627685,
      "suburb": "Brunswick",
      "state": "VIC",
      "postcode": "3056"
    },
    {
      "id": "coles-northcote-1",
      "retailer": "Coles",
      "name": "Coles Northcote (Separation Street end)",
      "address": "Plaza Shopping Centre, Separation St, Northcote VIC 3070",
      "latitude": -37.769356,
      "longitude": 145.001629,
      "suburb": "Northcote",
      "state": "VIC",
      "postcode": "3070"
    },
    {
      "id": "coles-northcote-2",
      "retailer": "Coles",
      "name": "Coles Local Fitzroy",
      "address": "95-103 Johnston St, Fitzroy VIC 3065",
      "latitude": -37.7981756,
      "longitude": 144.9779739,
      "suburb": "Northcote",
      "state": "VIC",
      "postcode": "3065"
    },
    {
      "id": "coles-northcote-3",
      "retailer": "Coles",
      "name": "Coles Collingwood",
      "address": "172 Smith St, Collingwood VIC 3066",
      "latitude": -37.8036111,
      "longitude": 144.9838889,
      "suburb": "Northcote",
      "state": "VIC",
      "postcode": "3066"
    },
    {
      "id": "coles-northcote-4",
      "retailer": "Coles",
      "name": "Coles Ivanhoe",
      "address": "4 Livingstone St, Ivanhoe VIC 3079",
      "latitude": -37.7683584,
      "longitude": 145.0417658,
      "suburb": "Northcote",
      "state": "VIC",
      "postcode": "3079"
    },
    {
      "id": "coles-preston-1",
      "retailer": "Coles",
      "name": "Coles Summerhill",
      "address": "850 Plenty Rd, Reservoir VIC 3073",
      "latitude": -37.7254182,
      "longitude": 145.0281556,
      "suburb": "Preston",
      "state": "VIC",
      "postcode": "3073"
    },
    {
      "id": "coles-preston-2",
      "retailer": "Coles",
      "name": "Coles Northland",
      "address": "2/50 Murray Rd Northland Shopping Centre, Preston VIC 3072",
      "latitude": -37.7391771,
      "longitude": 145.0284362,
      "suburb": "Preston",
      "state": "VIC",
      "postcode": "3072"
    },
    {
      "id": "coles-reservoir-1",
      "retailer": "Coles",
      "name": "Coles Glenroy",
      "address": "&Morgan Crt, 250 Glenroy Rd, Glenroy VIC 3046",
      "latitude": -37.7055103,
      "longitude": 144.9168201,
      "suburb": "Reservoir",
      "state": "VIC",
      "postcode": "3046"
    },
    {
      "id": "coles-reservoir-2",
      "retailer": "Coles",
      "name": "Coles Campbellfield",
      "address": "Campbellfield Plaza/Mahoneys Rd, Mahoneys Rd, Campbellfield VIC 3061",
      "latitude": -37.6889937,
      "longitude": 144.9603233,
      "suburb": "Reservoir",
      "state": "VIC",
      "postcode": "3061"
    },
    {
      "id": "coles-reservoir-3",
      "retailer": "Coles",
      "name": "Coles Reservoir",
      "address": "323-325 Spring St, Reservoir VIC 3073",
      "latitude": -37.7145579,
      "longitude": 145.007289,
      "suburb": "Reservoir",
      "state": "VIC",
      "postcode": "3073"
    },
    {
      "id": "coles-reservoir-4",
      "retailer": "Coles",
      "name": "Coles Bundoora",
      "address": "Bundoora Square, Settlement Rd & Plenty Rd Bundoora Square Shopping Centre, 5/25-31 Plenty Rd, Bundoora VIC 3083",
      "latitude": -37.697248,
      "longitude": 145.058073,
      "suburb": "Reservoir",
      "state": "VIC",
      "postcode": "3083"
    },
    {
      "id": "coles-epping-1",
      "retailer": "Coles",
      "name": "Coles Epping",
      "address": "High St, Epping VIC 3076",
      "latitude": -37.6543335,
      "longitude": 145.018823,
      "suburb": "Epping",
      "state": "VIC",
      "postcode": "3076"
    },
    {
      "id": "coles-epping-2",
      "retailer": "Coles",
      "name": "Coles Aurora Village",
      "address": "315A Harvest Home Rd, Epping VIC 3076",
      "latitude": -37.6213849,
      "longitude": 145.0065544,
      "suburb": "Epping",
      "state": "VIC",
      "postcode": "3076"
    },
    {
      "id": "coles-epping-3",
      "retailer": "Coles",
      "name": "Coles Lalor",
      "address": "47-71 May Rd, Lalor VIC 3075",
      "latitude": -37.673019,
      "longitude": 145.0169386,
      "suburb": "Epping",
      "state": "VIC",
      "postcode": "3075"
    },
    {
      "id": "coles-epping-4",
      "retailer": "Coles",
      "name": "Coles Plenty Valley",
      "address": "Civic Dr, Mill Park VIC 3082",
      "latitude": -37.650821,
      "longitude": 145.0689201,
      "suburb": "Epping",
      "state": "VIC",
      "postcode": "3082"
    },
    {
      "id": "coles-epping-5",
      "retailer": "Coles",
      "name": "Coles Lalor Plaza",
      "address": "Lalor Plaza Shopping Centre, Darebin Dr, Lalor VIC 3075",
      "latitude": -37.675,
      "longitude": 145.0352778,
      "suburb": "Epping",
      "state": "VIC",
      "postcode": "3075"
    },
    {
      "id": "coles-epping-6",
      "retailer": "Coles",
      "name": "Coles Mill Park Lakes",
      "address": "Mill Park Lakes, The Lakes Blvd, South Morang VIC 3752",
      "latitude": -37.6294635,
      "longitude": 145.0791252,
      "suburb": "Epping",
      "state": "VIC",
      "postcode": "3752"
    },
    {
      "id": "coles-millpark-1",
      "retailer": "Coles",
      "name": "Coles Uni Hill",
      "address": "University Hill, 224 Plenty Rd, Bundoora VIC 3083",
      "latitude": -37.6828041,
      "longitude": 145.0702964,
      "suburb": "Mill Park",
      "state": "VIC",
      "postcode": "3083"
    },
    {
      "id": "coles-millpark-2",
      "retailer": "Coles",
      "name": "Coles Greensborough Plaza",
      "address": "25 Main St, Greensborough VIC 3088",
      "latitude": -37.7020624,
      "longitude": 145.1026467,
      "suburb": "Mill Park",
      "state": "VIC",
      "postcode": "3088"
    },
    {
      "id": "coles-southmorang-1",
      "retailer": "Coles",
      "name": "Coles Mernda",
      "address": "Corner Plenty Rd And, Bridge Inn Rd, Mernda VIC 3754",
      "latitude": -37.600157,
      "longitude": 145.0954472,
      "suburb": "South Morang",
      "state": "VIC",
      "postcode": "3754"
    },
    {
      "id": "coles-southmorang-2",
      "retailer": "Coles",
      "name": "Coles Diamond Creek",
      "address": "Shopping Station, 67 Main Hurstbridge Rd, Diamond Creek VIC 3089",
      "latitude": -37.6735423,
      "longitude": 145.1593079,
      "suburb": "South Morang",
      "state": "VIC",
      "postcode": "3089"
    },
    {
      "id": "coles-greensborough-1",
      "retailer": "Coles",
      "name": "Coles Eltham",
      "address": "Main Rd &, Arthur St, Eltham VIC 3095",
      "latitude": -37.715117,
      "longitude": 145.1484119,
      "suburb": "Greensborough",
      "state": "VIC",
      "postcode": "3095"
    },
    {
      "id": "coles-eltham-1",
      "retailer": "Coles",
      "name": "Coles Warringal Mall",
      "address": "Burgundy St &, Rosanna Rd, Heidelberg VIC 3084",
      "latitude": -37.7558326,
      "longitude": 145.0690155,
      "suburb": "Eltham",
      "state": "VIC",
      "postcode": "3084"
    },
    {
      "id": "coles-eltham-2",
      "retailer": "Coles",
      "name": "Coles The Pines",
      "address": "Reynolds Rd, Doncaster East VIC 3109",
      "latitude": -37.7612752,
      "longitude": 145.1697779,
      "suburb": "Eltham",
      "state": "VIC",
      "postcode": "3109"
    },
    {
      "id": "coles-roxburghpark-1",
      "retailer": "Coles",
      "name": "GHPL. Coles SOMERTON DC",
      "address": "2-70 Union Rd, Somerton VIC 3062",
      "latitude": -37.6394065,
      "longitude": 144.943903,
      "suburb": "Roxburgh Park",
      "state": "VIC",
      "postcode": "3062"
    },
    {
      "id": "coles-broadmeadows-1",
      "retailer": "Coles",
      "name": "Coles Airport West",
      "address": "29-35 Louis St, Airport West VIC 3042",
      "latitude": -37.7149028,
      "longitude": 144.8845,
      "suburb": "Broadmeadows",
      "state": "VIC",
      "postcode": "3042"
    },
    {
      "id": "coles-pascoevale-1",
      "retailer": "Coles",
      "name": "Coles Essendon Fields",
      "address": "30 English St, Essendon Fields Central, Strathmore VIC 3041",
      "latitude": -37.7270872,
      "longitude": 144.8961872,
      "suburb": "Pascoe Vale",
      "state": "VIC",
      "postcode": "3041"
    },
    {
      "id": "coles-heidelberg-1",
      "retailer": "Coles",
      "name": "Coles Bulleen",
      "address": "83 Manningham Rd, Bulleen VIC 3105",
      "latitude": -37.7657115,
      "longitude": 145.091928,
      "suburb": "Heidelberg",
      "state": "VIC",
      "postcode": "3105"
    },
    {
      "id": "coles-heidelberg-2",
      "retailer": "Coles",
      "name": "Soul Origin Northland Coles",
      "address": "kk43 Northland Shopping Centre 2, 50 Murray Rd, Preston VIC 3072",
      "latitude": -37.7389145,
      "longitude": 145.0297748,
      "suburb": "Heidelberg",
      "state": "VIC",
      "postcode": "3072"
    },
    {
      "id": "coles-ivanhoe-1",
      "retailer": "Coles",
      "name": "Coles Local Balwyn North",
      "address": "1 Doncaster Rd, Balwyn North VIC 3104",
      "latitude": -37.7931372,
      "longitude": 145.0646588,
      "suburb": "Ivanhoe",
      "state": "VIC",
      "postcode": "3104"
    },
    {
      "id": "coles-boxhill-1",
      "retailer": "Coles",
      "name": "Coles Box Hill Central",
      "address": "1 Main St, Box Hill VIC 3128",
      "latitude": -37.8197109,
      "longitude": 145.1207673,
      "suburb": "Box Hill",
      "state": "VIC",
      "postcode": "3128"
    },
    {
      "id": "coles-boxhill-2",
      "retailer": "Coles",
      "name": "Coles Middle Camberwell",
      "address": "751 Riversdale Rd, Camberwell VIC 3124",
      "latitude": -37.8333624,
      "longitude": 145.0774593,
      "suburb": "Box Hill",
      "state": "VIC",
      "postcode": "3124"
    },
    {
      "id": "coles-boxhill-3",
      "retailer": "Coles",
      "name": "Coles Local Surrey Hills",
      "address": "126 Union Rd, Surrey Hills VIC 3127",
      "latitude": -37.824213,
      "longitude": 145.097363,
      "suburb": "Box Hill",
      "state": "VIC",
      "postcode": "3127"
    },
    {
      "id": "coles-boxhill-4",
      "retailer": "Coles",
      "name": "Coles Blackburn North",
      "address": "Corner of Springfield & Williams Rds North Blackburn Shopping Centre, Blackburn North VIC 3130",
      "latitude": -37.811272,
      "longitude": 145.1535,
      "suburb": "Box Hill",
      "state": "VIC",
      "postcode": "3130"
    },
    {
      "id": "coles-boxhill-5",
      "retailer": "Coles",
      "name": "Coles Balwyn East",
      "address": "342-344 Belmore Rd, Balwyn VIC 3103",
      "latitude": -37.8038833,
      "longitude": 145.102075,
      "suburb": "Box Hill",
      "state": "VIC",
      "postcode": "3103"
    },
    {
      "id": "coles-boxhill-6",
      "retailer": "Coles",
      "name": "Coles Forest Hill",
      "address": "Mahoneys Rd, Forest Hill VIC 3131",
      "latitude": -37.8349389,
      "longitude": 145.1645641,
      "suburb": "Box Hill",
      "state": "VIC",
      "postcode": "3131"
    },
    {
      "id": "coles-boxhill-7",
      "retailer": "Coles",
      "name": "Coles Burwood East",
      "address": "Burwood Hwy &, Blackburn Rd, Burwood East VIC 3151",
      "latitude": -37.8534082,
      "longitude": 145.1489378,
      "suburb": "Box Hill",
      "state": "VIC",
      "postcode": "3151"
    },
    {
      "id": "coles-boxhill-8",
      "retailer": "Coles",
      "name": "Coles Local Camberwell",
      "address": "Burke Ave, Camberwell VIC 3123",
      "latitude": -37.8295734,
      "longitude": 145.056237,
      "suburb": "Box Hill",
      "state": "VIC",
      "postcode": "3123"
    },
    {
      "id": "coles-doncaster-1",
      "retailer": "Coles",
      "name": "Coles Kew",
      "address": "369 High St, Kew VIC 3101",
      "latitude": -37.80401,
      "longitude": 145.0382184,
      "suburb": "Doncaster",
      "state": "VIC",
      "postcode": "3101"
    },
    {
      "id": "coles-doncaster-2",
      "retailer": "Coles",
      "name": "Coles Tunstall Square",
      "address": "Tunstall Square Shopping Centre Doncaster Rd &, Tunstall Rd, Donvale VIC 3111",
      "latitude": -37.7912717,
      "longitude": 145.1716908,
      "suburb": "Doncaster",
      "state": "VIC",
      "postcode": "3111"
    },
    {
      "id": "coles-doncaster-3",
      "retailer": "Coles",
      "name": "Coles Doncaster",
      "address": "G219, Williamsons Rd &, Doncaster Rd, Doncaster VIC 3108",
      "latitude": -37.786638,
      "longitude": 145.1258204,
      "suburb": "Doncaster",
      "state": "VIC",
      "postcode": "3108"
    },
    {
      "id": "coles-blackburn-1",
      "retailer": "Coles",
      "name": "Shell Coles Express Nunawading",
      "address": "340-342 Whitehorse Rd (Corner, Springvale Rd, Nunawading VIC 3131",
      "latitude": -37.8189602,
      "longitude": 145.1752973,
      "suburb": "Blackburn",
      "state": "VIC",
      "postcode": "3131"
    },
    {
      "id": "coles-ringwood-1",
      "retailer": "Coles",
      "name": "Coles Ringwood",
      "address": "Maroondah Hwy & New Street, Ringwood Square Shopping Centre, Ringwood VIC 3134",
      "latitude": -37.8157874,
      "longitude": 145.2215719,
      "suburb": "Ringwood",
      "state": "VIC",
      "postcode": "3134"
    },
    {
      "id": "coles-ringwood-2",
      "retailer": "Coles",
      "name": "Coles Eastland",
      "address": "175 Warrandyte Road &, Maroondah Hwy, Ringwood VIC 3134",
      "latitude": -37.8120233,
      "longitude": 145.2301655,
      "suburb": "Ringwood",
      "state": "VIC",
      "postcode": "3134"
    },
    {
      "id": "coles-ringwood-3",
      "retailer": "Coles",
      "name": "Coles Burntbridge",
      "address": "434 Maroondah Hwy Burnt Bridge Shopping Centre, Ringwood East VIC 3135",
      "latitude": -37.7970403,
      "longitude": 145.2570421,
      "suburb": "Ringwood",
      "state": "VIC",
      "postcode": "3135"
    },
    {
      "id": "coles-ringwood-4",
      "retailer": "Coles",
      "name": "Coles Croydon",
      "address": "Kent Ave, Croydon VIC 3136",
      "latitude": -37.7942387,
      "longitude": 145.2795425,
      "suburb": "Ringwood",
      "state": "VIC",
      "postcode": "3136"
    },
    {
      "id": "coles-ringwood-5",
      "retailer": "Coles",
      "name": "Coles Bayswater",
      "address": "7 - 13 High Street Mountain High Shopping Centre, Bayswater VIC 3153",
      "latitude": -37.8428309,
      "longitude": 145.2671422,
      "suburb": "Ringwood",
      "state": "VIC",
      "postcode": "3153"
    },
    {
      "id": "coles-croydon-1",
      "retailer": "Coles",
      "name": "Coles Mooroolbark",
      "address": "15 Brice Ave, Mooroolbark VIC 3138",
      "latitude": -37.7849626,
      "longitude": 145.3153084,
      "suburb": "Croydon",
      "state": "VIC",
      "postcode": "3138"
    },
    {
      "id": "coles-croydon-2",
      "retailer": "Coles",
      "name": "Coles Croydon North",
      "address": "401/415 Maroondah Hwy, Croydon North VIC 3136",
      "latitude": -37.7711202,
      "longitude": 145.2938257,
      "suburb": "Croydon",
      "state": "VIC",
      "postcode": "3136"
    },
    {
      "id": "coles-croydon-3",
      "retailer": "Coles",
      "name": "Coles Chirnside Park",
      "address": "Maroondah Hwy, Chirnside Park VIC 3116",
      "latitude": -37.7569046,
      "longitude": 145.3133545,
      "suburb": "Croydon",
      "state": "VIC",
      "postcode": "3116"
    },
    {
      "id": "coles-croydon-4",
      "retailer": "Coles",
      "name": "Coles Lilydale Village",
      "address": "Yarra Valley Shopping Centre, Castella St &, Maroondah Hwy, Lilydale VIC 3140",
      "latitude": -37.7564054,
      "longitude": 145.354391,
      "suburb": "Croydon",
      "state": "VIC",
      "postcode": "3140"
    },
    {
      "id": "coles-glenwaverley-1",
      "retailer": "Coles",
      "name": "Coles Chadstone",
      "address": "1341 Dandenong Rd, Chadstone VIC 3148",
      "latitude": -37.8854707,
      "longitude": 145.0843638,
      "suburb": "Glen Waverley",
      "state": "VIC",
      "postcode": "3148"
    },
    {
      "id": "coles-glenwaverley-2",
      "retailer": "Coles",
      "name": "Coles Oakleigh",
      "address": "Hanover St &, Portman St, Oakleigh VIC 3166",
      "latitude": -37.9012376,
      "longitude": 145.0901858,
      "suburb": "Glen Waverley",
      "state": "VIC",
      "postcode": "3166"
    },
    {
      "id": "coles-glenwaverley-3",
      "retailer": "Coles",
      "name": "Coles Pinewood",
      "address": "433 Blackburn Rd Pinewood Shopping Centre, Mount Waverley VIC 3149",
      "latitude": -37.8916063,
      "longitude": 145.1438439,
      "suburb": "Glen Waverley",
      "state": "VIC",
      "postcode": "3149"
    },
    {
      "id": "coles-glenwaverley-4",
      "retailer": "Coles",
      "name": "Coles Chadstone Village",
      "address": "Warrigal Rd, Ashwood VIC 3148",
      "latitude": -37.8786975,
      "longitude": 145.0922345,
      "suburb": "Glen Waverley",
      "state": "VIC",
      "postcode": "3148"
    },
    {
      "id": "coles-glenwaverley-5",
      "retailer": "Coles",
      "name": "Coles The Glen",
      "address": "Springvale Rd & High St, Glen Waverley VIC 3150",
      "latitude": -37.8767637,
      "longitude": 145.1648409,
      "suburb": "Glen Waverley",
      "state": "VIC",
      "postcode": "3150"
    },
    {
      "id": "coles-glenwaverley-6",
      "retailer": "Coles",
      "name": "Coles Brandon Park",
      "address": "Ferntree Gully &, Springvale Rd, Wheelers Hill VIC 3150",
      "latitude": -37.9047606,
      "longitude": 145.1622092,
      "suburb": "Glen Waverley",
      "state": "VIC",
      "postcode": "3150"
    },
    {
      "id": "coles-glenwaverley-7",
      "retailer": "Coles",
      "name": "Coles Vermont South",
      "address": "Burwood Hwy, Vermont South VIC 3133",
      "latitude": -37.8549166,
      "longitude": 145.1830025,
      "suburb": "Glen Waverley",
      "state": "VIC",
      "postcode": "3133"
    },
    {
      "id": "coles-glenwaverley-8",
      "retailer": "Coles",
      "name": "Coles Knox",
      "address": "425 Burwood Hwy, Wantirna South VIC 3152",
      "latitude": -37.8682728,
      "longitude": 145.2406677,
      "suburb": "Glen Waverley",
      "state": "VIC",
      "postcode": "3152"
    },
    {
      "id": "coles-glenwaverley-9",
      "retailer": "Coles",
      "name": "Coles Clayton",
      "address": "2/4 Cooke St, Clayton VIC 3168",
      "latitude": -37.9259297,
      "longitude": 145.1186124,
      "suburb": "Glen Waverley",
      "state": "VIC",
      "postcode": "3168"
    },
    {
      "id": "coles-boronia-1",
      "retailer": "Coles",
      "name": "Coles Boronia",
      "address": "Floriston Rd, Boronia VIC 3155",
      "latitude": -37.8611236,
      "longitude": 145.2874839,
      "suburb": "Boronia",
      "state": "VIC",
      "postcode": "3155"
    },
    {
      "id": "coles-boronia-2",
      "retailer": "Coles",
      "name": "Coles Ferntree Gully",
      "address": "Mountain Gate Shopping Centre, Mountain Gate SC, Shop 34/1880 Ferntree Gully Rd, Ferntree Gully VIC 3156",
      "latitude": -37.8836959,
      "longitude": 145.2753251,
      "suburb": "Boronia",
      "state": "VIC",
      "postcode": "3156"
    },
    {
      "id": "coles-rowville-1",
      "retailer": "Coles",
      "name": "Coles Springvale",
      "address": "825 Dandenong Rd, Springvale VIC 3171",
      "latitude": -37.9346338,
      "longitude": 145.1567086,
      "suburb": "Rowville",
      "state": "VIC",
      "postcode": "3171"
    },
    {
      "id": "coles-rowville-2",
      "retailer": "Coles",
      "name": "Coles Waverley Gardens",
      "address": "Police Rd &, Waverley Gardens, Jacksons Rd, Mulgrave VIC 3170",
      "latitude": -37.9354521,
      "longitude": 145.1907125,
      "suburb": "Rowville",
      "state": "VIC",
      "postcode": "3170"
    },
    {
      "id": "coles-rowville-3",
      "retailer": "Coles",
      "name": "Coles Stud Park",
      "address": "Stud Park Shopping Centre Stud Road, Rowville VIC 3178",
      "latitude": -37.9208447,
      "longitude": 145.2375332,
      "suburb": "Rowville",
      "state": "VIC",
      "postcode": "3178"
    },
    {
      "id": "coles-rowville-4",
      "retailer": "Coles",
      "name": "Coles Noble Park",
      "address": "1 Douglas St, Noble Park VIC 3174",
      "latitude": -37.965451,
      "longitude": 145.173018,
      "suburb": "Rowville",
      "state": "VIC",
      "postcode": "3174"
    },
    {
      "id": "coles-rowville-5",
      "retailer": "Coles",
      "name": "Shell Coles Express Clayton",
      "address": "2143-2149 Dandenong Road &, Renver Rd, Clayton VIC 3168",
      "latitude": -37.9237118,
      "longitude": 145.1429335,
      "suburb": "Rowville",
      "state": "VIC",
      "postcode": "3168"
    },
    {
      "id": "coles-knox-1",
      "retailer": "Coles",
      "name": "Coles Local South Melbourne",
      "address": "229 Coventry St, South Melbourne VIC 3205",
      "latitude": -37.832414,
      "longitude": 144.960615,
      "suburb": "Knox",
      "state": "VIC",
      "postcode": "3205"
    },
    {
      "id": "coles-knox-2",
      "retailer": "Coles",
      "name": "Coles Spencer St",
      "address": "201 Spencer St, Docklands VIC 3008",
      "latitude": -37.8150524,
      "longitude": 144.9520136,
      "suburb": "Knox",
      "state": "VIC",
      "postcode": "3008"
    },
    {
      "id": "coles-knox-3",
      "retailer": "Coles",
      "name": "Coles Central Melbourne Central",
      "address": "211 La Trobe St, Melbourne VIC 3000",
      "latitude": -37.8099738,
      "longitude": 144.9633964,
      "suburb": "Knox",
      "state": "VIC",
      "postcode": "3000"
    },
    {
      "id": "coles-knox-4",
      "retailer": "Coles",
      "name": "Coles Prahran",
      "address": "303 Chapel St, Prahran VIC 3181",
      "latitude": -37.8479215,
      "longitude": 144.9938045,
      "suburb": "Knox",
      "state": "VIC",
      "postcode": "3181"
    },
    {
      "id": "coles-knox-5",
      "retailer": "Coles",
      "name": "Coles Central Melbourne CBD",
      "address": "Elizabeth St &, Flinders St, Melbourne VIC 3000",
      "latitude": -37.8177038,
      "longitude": 144.9650065,
      "suburb": "Knox",
      "state": "VIC",
      "postcode": "3000"
    },
    {
      "id": "coles-scoresby-1",
      "retailer": "Coles",
      "name": "Coles Clayton (Centre Rd)",
      "address": "1389 Centre Rd, Clayton VIC 3168",
      "latitude": -37.9279098,
      "longitude": 145.1182708,
      "suburb": "Scoresby",
      "state": "VIC",
      "postcode": "3168"
    },
    {
      "id": "coles-dandenong-1",
      "retailer": "Coles",
      "name": "Coles Dandenong",
      "address": "23/26 Princes Hwy, Dandenong VIC 3175",
      "latitude": -37.9830434,
      "longitude": 145.2145232,
      "suburb": "Dandenong",
      "state": "VIC",
      "postcode": "3175"
    },
    {
      "id": "coles-dandenong-2",
      "retailer": "Coles",
      "name": "Coles Parkmore",
      "address": "Cheltenham Rd, Keysborough VIC 3173",
      "latitude": -37.9921626,
      "longitude": 145.1718697,
      "suburb": "Dandenong",
      "state": "VIC",
      "postcode": "3173"
    },
    {
      "id": "coles-dandenong-3",
      "retailer": "Coles",
      "name": "Coles Dandenong Plaza",
      "address": "Walker St, Dandenong VIC 3175",
      "latitude": -37.9865099,
      "longitude": 145.2182737,
      "suburb": "Dandenong",
      "state": "VIC",
      "postcode": "3175"
    },
    {
      "id": "coles-dandenong-4",
      "retailer": "Coles",
      "name": "Coles Hallam",
      "address": "2 Princes Domain Dr, Hallam VIC 3803",
      "latitude": -38.0047811,
      "longitude": 145.266375,
      "suburb": "Dandenong",
      "state": "VIC",
      "postcode": "3803"
    },
    {
      "id": "coles-dandenong-5",
      "retailer": "Coles",
      "name": "Coles Endeavour Hills",
      "address": "Matthew Flinders Ave, Endeavour Hills VIC 3802",
      "latitude": -37.9777127,
      "longitude": 145.2578719,
      "suburb": "Dandenong",
      "state": "VIC",
      "postcode": "3802"
    },
    {
      "id": "coles-cranbourne-1",
      "retailer": "Coles",
      "name": "Coles Frankston",
      "address": "Bayside Shopping Centre Keys St &, Ross Smith Ave W, Frankston VIC 3199",
      "latitude": -38.1415641,
      "longitude": 145.1231733,
      "suburb": "Cranbourne",
      "state": "VIC",
      "postcode": "3199"
    },
    {
      "id": "coles-cranbourne-2",
      "retailer": "Coles",
      "name": "Coles Casey Central",
      "address": "Casey Central Shopping Centre, Narre Warren - Cranbourne Rd, Narre Warren VIC 3977",
      "latitude": -38.068525,
      "longitude": 145.3007532,
      "suburb": "Cranbourne",
      "state": "VIC",
      "postcode": "3977"
    },
    {
      "id": "coles-cranbourne-3",
      "retailer": "Coles",
      "name": "Coles Cranbourne",
      "address": "Shopping Centre, High St, Cranbourne VIC 3977",
      "latitude": -38.1084674,
      "longitude": 145.2818032,
      "suburb": "Cranbourne",
      "state": "VIC",
      "postcode": "3977"
    },
    {
      "id": "coles-cranbourne-4",
      "retailer": "Coles",
      "name": "Coles Patterson Lakes",
      "address": "Gladesville Shopping Centre, Patterson Lakes Reserve, 116/118 Gladesville Blvd, Patterson Lakes VIC 3197",
      "latitude": -38.0687243,
      "longitude": 145.1447448,
      "suburb": "Cranbourne",
      "state": "VIC",
      "postcode": "3197"
    },
    {
      "id": "coles-cranbourne-5",
      "retailer": "Coles",
      "name": "Coles Springhill",
      "address": "Springhill Dr, Cranbourne VIC 3977",
      "latitude": -38.0849908,
      "longitude": 145.2928501,
      "suburb": "Cranbourne",
      "state": "VIC",
      "postcode": "3977"
    },
    {
      "id": "coles-cranbourne-6",
      "retailer": "Coles",
      "name": "Coles Cranbourne West",
      "address": "Sandhurst Centre Duff St &, Monahans Rd, Cranbourne West VIC 3977",
      "latitude": -38.103107,
      "longitude": 145.2654834,
      "suburb": "Cranbourne",
      "state": "VIC",
      "postcode": "3977"
    },
    {
      "id": "coles-cranbourne-7",
      "retailer": "Coles",
      "name": "Coles Lynbrook",
      "address": "75 Lynbrook Blvd, Lynbrook VIC 3975",
      "latitude": -38.0521457,
      "longitude": 145.2568955,
      "suburb": "Cranbourne",
      "state": "VIC",
      "postcode": "3975"
    },
    {
      "id": "coles-cranbourne-8",
      "retailer": "Coles",
      "name": "Coles Langwarrin",
      "address": "230 Cranbourne-Frankston Rd, Langwarrin VIC 3910",
      "latitude": -38.1507411,
      "longitude": 145.1967524,
      "suburb": "Cranbourne",
      "state": "VIC",
      "postcode": "3910"
    },
    {
      "id": "coles-cranbourne-9",
      "retailer": "Coles",
      "name": "Coles Karingal Hub",
      "address": "Cranbourne Rd & Karingal Drv Karingal Hub Shopping Centre, Frankston VIC 3199",
      "latitude": -38.152133,
      "longitude": 145.166091,
      "suburb": "Cranbourne",
      "state": "VIC",
      "postcode": "3199"
    },
    {
      "id": "coles-cranbourne-10",
      "retailer": "Coles",
      "name": "Coles Clyde North",
      "address": "Berwick Cranbourne Rd, Shopping on Clyde, Clyde North VIC 3977",
      "latitude": -38.1190188,
      "longitude": 145.3201104,
      "suburb": "Cranbourne",
      "state": "VIC",
      "postcode": "3977"
    },
    {
      "id": "coles-berwick-1",
      "retailer": "Coles",
      "name": "Coles Fountain Gate",
      "address": "55 Princes Hwy, Narre Warren VIC 3805",
      "latitude": -38.0182947,
      "longitude": 145.3063094,
      "suburb": "Berwick",
      "state": "VIC",
      "postcode": "3805"
    },
    {
      "id": "coles-pakenham-1",
      "retailer": "Coles",
      "name": "Coles Parkhill Junction",
      "address": "215 - 225 Parkhill Drive, Parkhill Plaza Shopping Centre, Berwick VIC 3806",
      "latitude": -38.0140481,
      "longitude": 145.3223231,
      "suburb": "Pakenham",
      "state": "VIC",
      "postcode": "3806"
    },
    {
      "id": "coles-pakenham-2",
      "retailer": "Coles",
      "name": "Coles Berwick Central",
      "address": "2 Richardson Grove, Berwick VIC 3806",
      "latitude": -38.0320755,
      "longitude": 145.3450265,
      "suburb": "Pakenham",
      "state": "VIC",
      "postcode": "3806"
    },
    {
      "id": "coles-pakenham-3",
      "retailer": "Coles",
      "name": "Coles St Germain",
      "address": "1/21 St Germain Blvd, Clyde North VIC 3978",
      "latitude": -38.095403,
      "longitude": 145.3623237,
      "suburb": "Pakenham",
      "state": "VIC",
      "postcode": "3978"
    },
    {
      "id": "coles-pakenham-4",
      "retailer": "Coles",
      "name": "Coles Eden Rise",
      "address": "Oshea Rd & Clyde Rd, Berwick VIC 3806",
      "latitude": -38.0615846,
      "longitude": 145.3393704,
      "suburb": "Pakenham",
      "state": "VIC",
      "postcode": "3806"
    },
    {
      "id": "coles-pakenham-5",
      "retailer": "Coles",
      "name": "Coles Pakenham",
      "address": "Pakenham Place Shopping Centre, 67/69 Main St, Pakenham VIC 3810",
      "latitude": -38.0778167,
      "longitude": 145.4789866,
      "suburb": "Pakenham",
      "state": "VIC",
      "postcode": "3810"
    },
    {
      "id": "coles-narrewarren-1",
      "retailer": "Coles",
      "name": "Coles Online Hub Store Ocado Spoke - Dandenong",
      "address": "59 Colemans Rd, Dandenong South VIC 3175",
      "latitude": -38.039753,
      "longitude": 145.217968,
      "suburb": "Narre Warren",
      "state": "VIC",
      "postcode": "3175"
    },
    {
      "id": "coles-clayton-1",
      "retailer": "Coles",
      "name": "Coles Bentleigh",
      "address": "5/7 Vickery St, Bentleigh VIC 3204",
      "latitude": -37.9177055,
      "longitude": 145.0385008,
      "suburb": "Clayton",
      "state": "VIC",
      "postcode": "3204"
    },
    {
      "id": "coles-clayton-2",
      "retailer": "Coles",
      "name": "Coles Hampton (Bluff Road)",
      "address": "361 Bluff Rd, Hampton VIC 3188",
      "latitude": -37.9453254,
      "longitude": 145.0217971,
      "suburb": "Clayton",
      "state": "VIC",
      "postcode": "3188"
    },
    {
      "id": "coles-clayton-3",
      "retailer": "Coles",
      "name": "Coles Caulfield Village",
      "address": "4 Caulfield Bvd, Caulfield North VIC 3161",
      "latitude": -37.8757811,
      "longitude": 145.0382745,
      "suburb": "Clayton",
      "state": "VIC",
      "postcode": "3161"
    },
    {
      "id": "coles-springvale-1",
      "retailer": "Coles",
      "name": "Coles Southland",
      "address": "Westfield Southland, 1239 Nepean Hwy, Cheltenham VIC 3192",
      "latitude": -37.9588074,
      "longitude": 145.0513868,
      "suburb": "Springvale",
      "state": "VIC",
      "postcode": "3192"
    },
    {
      "id": "coles-springvale-2",
      "retailer": "Coles",
      "name": "Coles Mentone",
      "address": "Mentone Pde &, Brindisi St, Mentone VIC 3194",
      "latitude": -37.9840768,
      "longitude": 145.0645012,
      "suburb": "Springvale",
      "state": "VIC",
      "postcode": "3194"
    },
    {
      "id": "coles-oakleigh-1",
      "retailer": "Coles",
      "name": "Coles Malvern",
      "address": "164-178 Glenferrie Rd, Malvern VIC 3144",
      "latitude": -37.8602407,
      "longitude": 145.0291462,
      "suburb": "Oakleigh",
      "state": "VIC",
      "postcode": "3144"
    },
    {
      "id": "coles-carnegie-1",
      "retailer": "Coles",
      "name": "Coles Brighton - Bay Street",
      "address": "380 Bay St, Brighton VIC 3186",
      "latitude": -37.9059918,
      "longitude": 145.0054071,
      "suburb": "Carnegie",
      "state": "VIC",
      "postcode": "3186"
    },
    {
      "id": "coles-carnegie-2",
      "retailer": "Coles",
      "name": "Coles Elsternwick",
      "address": "475 Glen Huntly Rd, Elsternwick VIC 3185",
      "latitude": -37.8849322,
      "longitude": 145.0068903,
      "suburb": "Carnegie",
      "state": "VIC",
      "postcode": "3185"
    },
    {
      "id": "coles-carnegie-3",
      "retailer": "Coles",
      "name": "Coles Balaclava",
      "address": "Camden St &, Alfred St, Balaclava VIC 3183",
      "latitude": -37.8678737,
      "longitude": 144.9919986,
      "suburb": "Carnegie",
      "state": "VIC",
      "postcode": "3183"
    },
    {
      "id": "coles-carnegie-4",
      "retailer": "Coles",
      "name": "Coles Local Brighton",
      "address": "26 - 34 Church St Dendy Plaza Shopping Centre, Brighton VIC 3186",
      "latitude": -37.9131577,
      "longitude": 144.9929452,
      "suburb": "Carnegie",
      "state": "VIC",
      "postcode": "3186"
    },
    {
      "id": "coles-chadstone-1",
      "retailer": "Coles",
      "name": "Coles Tooronga",
      "address": "Tooronga Rd, Glen Iris VIC 3146",
      "latitude": -37.8461994,
      "longitude": 145.0454696,
      "suburb": "Chadstone",
      "state": "VIC",
      "postcode": "3146"
    },
    {
      "id": "coles-keysborough-1",
      "retailer": "Coles",
      "name": "Shell Coles Express Dandenong South",
      "address": "215-221 Greens Rd, Dandenong South VIC 3175",
      "latitude": -38.0121829,
      "longitude": 145.1985251,
      "suburb": "Keysborough",
      "state": "VIC",
      "postcode": "3175"
    },
    {
      "id": "coles-carrumdowns-1",
      "retailer": "Coles",
      "name": "Coles Carrum Downs",
      "address": "335 Ballarto Rd, Carrum Downs VIC 3201",
      "latitude": -38.115508,
      "longitude": 145.1928858,
      "suburb": "Carrum Downs",
      "state": "VIC",
      "postcode": "3201"
    },
    {
      "id": "coles-brighton-1",
      "retailer": "Coles",
      "name": "Coles Sandringham",
      "address": "10-20 Waltham St, Sandringham VIC 3191",
      "latitude": -37.9495062,
      "longitude": 145.0032175,
      "suburb": "Brighton",
      "state": "VIC",
      "postcode": "3191"
    },
    {
      "id": "coles-frankston-1",
      "retailer": "Coles",
      "name": "Coles Mornington",
      "address": "Mornington Central, corner Franklin St &, Gordon St, Mornington VIC 3931",
      "latitude": -38.2192516,
      "longitude": 145.0399798,
      "suburb": "Frankston",
      "state": "VIC",
      "postcode": "3931"
    },
    {
      "id": "coles-cheltenham-1",
      "retailer": "Coles",
      "name": "Shell Coles Express Moorabbin",
      "address": "422-424 South Road (Corner, Linton St, Moorabbin VIC 3189",
      "latitude": -37.9344222,
      "longitude": 145.0425053,
      "suburb": "Cheltenham",
      "state": "VIC",
      "postcode": "3189"
    },
    {
      "id": "coles-mentone-1",
      "retailer": "Coles",
      "name": "Coles Ct/Balcombe Rd",
      "address": "Beaumaris VIC 3193",
      "latitude": -37.9792427,
      "longitude": 145.0477018,
      "suburb": "Mentone",
      "state": "VIC",
      "postcode": "3193"
    },
    {
      "id": "coles-elsternwick-1",
      "retailer": "Coles",
      "name": "Coles Local St Kilda",
      "address": "183 - 187 Barkly St, Acland St, St Kilda VIC 3182",
      "latitude": -37.8687992,
      "longitude": 144.9807137,
      "suburb": "Elsternwick",
      "state": "VIC",
      "postcode": "3182"
    },
    {
      "id": "coles-mornington-1",
      "retailer": "Coles",
      "name": "Coles Mornington Tyabb Road",
      "address": "61 Mornington-Tyabb Rd, Mornington VIC 3931",
      "latitude": -38.2329814,
      "longitude": 145.0514091,
      "suburb": "Mornington",
      "state": "VIC",
      "postcode": "3931"
    },
    {
      "id": "coles-mornington-2",
      "retailer": "Coles",
      "name": "Liquorland Mornington (Coles)",
      "address": "Mornington Central Shopping Centre, 78 Barkly St, Mornington VIC 3931",
      "latitude": -38.2191225,
      "longitude": 145.0398557,
      "suburb": "Mornington",
      "state": "VIC",
      "postcode": "3931"
    },
    {
      "id": "coles-mornington-3",
      "retailer": "Coles",
      "name": "Coles Somerville",
      "address": "49 Eramosa Rd W, Somerville VIC 3912",
      "latitude": -38.2239498,
      "longitude": 145.1704277,
      "suburb": "Mornington",
      "state": "VIC",
      "postcode": "3912"
    },
    {
      "id": "coles-mornington-4",
      "retailer": "Coles",
      "name": "Coles Hastings",
      "address": "Victoria St &, 15 Church St, Hastings VIC 3915",
      "latitude": -38.3063595,
      "longitude": 145.1914961,
      "suburb": "Mornington",
      "state": "VIC",
      "postcode": "3915"
    },
    {
      "id": "coles-rosebud-1",
      "retailer": "Coles",
      "name": "Coles Rosebud",
      "address": "McCombe St, Rosebud VIC 3939",
      "latitude": -38.3614658,
      "longitude": 144.8921857,
      "suburb": "Rosebud",
      "state": "VIC",
      "postcode": "3939"
    },
    {
      "id": "coles-rosebud-2",
      "retailer": "Coles",
      "name": "Coles McCrae",
      "address": "McCrae Plaza, Nepean Hwy &, Lonsdale St, McCrae VIC 3939",
      "latitude": -38.3516203,
      "longitude": 144.9229536,
      "suburb": "Rosebud",
      "state": "VIC",
      "postcode": "3939"
    },
    {
      "id": "coles-rosebud-3",
      "retailer": "Coles",
      "name": "Liquorland Rosebud (Coles)",
      "address": "Cnr Boneo Road & McCombe Street Cnr Boneo Rd &, McCombe St, Rosebud VIC 3939",
      "latitude": -38.3614741,
      "longitude": 144.8914836,
      "suburb": "Rosebud",
      "state": "VIC",
      "postcode": "3939"
    },
    {
      "id": "coles-hastings-1",
      "retailer": "Coles",
      "name": "Coles Cowes",
      "address": "Cnr Church St &, 114-122 Thompson Ave, Cowes VIC 3922",
      "latitude": -38.4527275,
      "longitude": 145.2383888,
      "suburb": "Hastings",
      "state": "VIC",
      "postcode": "3922"
    },
    {
      "id": "coles-hastings-2",
      "retailer": "Coles",
      "name": "Coles Botanic Ridge",
      "address": "Shopping Centre, Craig Rd, Botanic Ridge VIC 3977",
      "latitude": -38.1497419,
      "longitude": 145.2901058,
      "suburb": "Hastings",
      "state": "VIC",
      "postcode": "3977"
    },
    {
      "id": "coles-melbournecbd-1",
      "retailer": "Coles",
      "name": "Coles Richmond Icon",
      "address": "150/160 Swan St, Richmond VIC 3121",
      "latitude": -37.8254357,
      "longitude": 144.9948563,
      "suburb": "Melbourne CBD",
      "state": "VIC",
      "postcode": "3121"
    },
    {
      "id": "coles-melbournecbd-2",
      "retailer": "Coles",
      "name": "Coles Richmond Traders",
      "address": "Corner Church and, Plaza Shopping Centre, Bridge Rd, Richmond VIC 3121",
      "latitude": -37.818057,
      "longitude": 144.998834,
      "suburb": "Melbourne CBD",
      "state": "VIC",
      "postcode": "3121"
    },
    {
      "id": "coles-melbournecbd-3",
      "retailer": "Coles",
      "name": "Coles Local South Melbourne - Normanby Road",
      "address": "253-273 Normanby Rd, South Melbourne VIC 3205",
      "latitude": -37.8302477,
      "longitude": 144.9467021,
      "suburb": "Melbourne CBD",
      "state": "VIC",
      "postcode": "3205"
    },
    {
      "id": "coles-fitzroy-1",
      "retailer": "Coles",
      "name": "Coles Victoria Gardens",
      "address": "Victoria St &, Burnley St, Richmond VIC 3121",
      "latitude": -37.8137555,
      "longitude": 145.0107608,
      "suburb": "Fitzroy",
      "state": "VIC",
      "postcode": "3121"
    },
    {
      "id": "coles-richmond-1",
      "retailer": "Coles",
      "name": "Coles Local Glenferrie",
      "address": "689-699 Glenferrie Rd, Hawthorn VIC 3122",
      "latitude": -37.820034,
      "longitude": 145.0354652,
      "suburb": "Richmond",
      "state": "VIC",
      "postcode": "3122"
    },
    {
      "id": "coles-southyarra-1",
      "retailer": "Coles",
      "name": "Coles Local Toorak Village",
      "address": "507 Toorak Rd, Toorak VIC 3142",
      "latitude": -37.8409205,
      "longitude": 145.0095342,
      "suburb": "South Yarra",
      "state": "VIC",
      "postcode": "3142"
    },
    {
      "id": "coles-camberwell-1",
      "retailer": "Coles",
      "name": "Unknown Supermarket Coles SSC",
      "address": "800 Tooronga Rd, Hawthorn East VIC 3123",
      "latitude": -37.845629,
      "longitude": 145.048292,
      "suburb": "Camberwell",
      "state": "VIC",
      "postcode": "3123"
    },
    {
      "id": "coles-camberwell-2",
      "retailer": "Coles",
      "name": "Coles Store Support Centre (HQ)",
      "address": "800 Toorak Rd, Hawthorn East VIC 3123",
      "latitude": -37.8454294,
      "longitude": 145.0482216,
      "suburb": "Camberwell",
      "state": "VIC",
      "postcode": "3123"
    },
    {
      "id": "coles-geelong-1",
      "retailer": "Coles",
      "name": "Coles Geelong",
      "address": "Moorabool St, Geelong VIC 3220",
      "latitude": -38.146301,
      "longitude": 144.3633849,
      "suburb": "Geelong",
      "state": "VIC",
      "postcode": "3220"
    },
    {
      "id": "coles-geelong-2",
      "retailer": "Coles",
      "name": "Coles Geelong West",
      "address": "166/188 Shannon Ave, Geelong West VIC 3218",
      "latitude": -38.1390495,
      "longitude": 144.3374176,
      "suburb": "Geelong",
      "state": "VIC",
      "postcode": "3218"
    },
    {
      "id": "coles-geelong-3",
      "retailer": "Coles",
      "name": "Coles Belmont",
      "address": "Belmont Village Shopping Centre, 65 High St, Belmont VIC 3216",
      "latitude": -38.1698674,
      "longitude": 144.3487794,
      "suburb": "Geelong",
      "state": "VIC",
      "postcode": "3216"
    },
    {
      "id": "coles-geelong-4",
      "retailer": "Coles",
      "name": "Coles Belmont (High Street)",
      "address": "158-162a High St, Belmont VIC 3216",
      "latitude": -38.1736151,
      "longitude": 144.3430413,
      "suburb": "Geelong",
      "state": "VIC",
      "postcode": "3216"
    },
    {
      "id": "coles-geelong-5",
      "retailer": "Coles",
      "name": "Coles Belmont: Car Park",
      "address": "162 High St, Belmont VIC 3216",
      "latitude": -38.1740061,
      "longitude": 144.3435069,
      "suburb": "Geelong",
      "state": "VIC",
      "postcode": "3216"
    },
    {
      "id": "coles-geelong-6",
      "retailer": "Coles",
      "name": "Coles Leopold",
      "address": "621 - 659 Bellarine Hwy Gateway Plaza (Leopold, Leopold VIC 3224",
      "latitude": -38.185325,
      "longitude": 144.4544775,
      "suburb": "Geelong",
      "state": "VIC",
      "postcode": "3224"
    },
    {
      "id": "coles-geelong-7",
      "retailer": "Coles",
      "name": "Coles Waurn Ponds",
      "address": "M2/173-199 Pioneer Rd, Waurn Ponds VIC 3216",
      "latitude": -38.1999375,
      "longitude": 144.3168341,
      "suburb": "Geelong",
      "state": "VIC",
      "postcode": "3216"
    },
    {
      "id": "coles-geelongwest-1",
      "retailer": "Coles",
      "name": "Coles Car Park",
      "address": "166 Shannon Ave, Geelong West VIC 3218",
      "latitude": -38.1389685,
      "longitude": 144.3369324,
      "suburb": "Geelong West",
      "state": "VIC",
      "postcode": "3218"
    },
    {
      "id": "coles-geelongwest-2",
      "retailer": "Coles",
      "name": "Coles Corio",
      "address": "83A Purnell Rd, Corio VIC 3214",
      "latitude": -38.0760629,
      "longitude": 144.3556396,
      "suburb": "Geelong West",
      "state": "VIC",
      "postcode": "3214"
    },
    {
      "id": "coles-belmont-1",
      "retailer": "Coles",
      "name": "Coles Armstrong Creek",
      "address": "Surf Coast Hwy, Armstrong Creek VIC 3217",
      "latitude": -38.2277451,
      "longitude": 144.3401297,
      "suburb": "Belmont",
      "state": "VIC",
      "postcode": "3217"
    },
    {
      "id": "coles-waurnponds-1",
      "retailer": "Coles",
      "name": "Liquorland Waurn Ponds (Coles)",
      "address": "SC, T953/135 Princes Hwy, Waurn Ponds VIC 3216",
      "latitude": -38.1994995,
      "longitude": 144.3168266,
      "suburb": "Waurn Ponds",
      "state": "VIC",
      "postcode": "3216"
    },
    {
      "id": "coles-ballarat-1",
      "retailer": "Coles",
      "name": "Coles Sebastopol",
      "address": "Eastwood Street, Ballarat Central VIC 3350",
      "latitude": -37.5997848,
      "longitude": 143.8399372,
      "suburb": "Ballarat",
      "state": "VIC",
      "postcode": "3350"
    },
    {
      "id": "coles-ballarat-2",
      "retailer": "Coles",
      "name": "Coles Ballarat (Peel St)",
      "address": "6/20 Peel St S, Ballarat Central VIC 3350",
      "latitude": -37.5638448,
      "longitude": 143.8632042,
      "suburb": "Ballarat",
      "state": "VIC",
      "postcode": "3350"
    },
    {
      "id": "coles-ballarat-3",
      "retailer": "Coles",
      "name": "Coles Ballarat (Victoria St)",
      "address": "73 Victoria St, Bakery Hill VIC 3350",
      "latitude": -37.5614121,
      "longitude": 143.86846,
      "suburb": "Ballarat",
      "state": "VIC",
      "postcode": "3350"
    },
    {
      "id": "coles-ballarat-4",
      "retailer": "Coles",
      "name": "Coles Wendouree",
      "address": "Gillies St &, Norman St, Wendouree VIC 3355",
      "latitude": -37.535001,
      "longitude": 143.8242043,
      "suburb": "Ballarat",
      "state": "VIC",
      "postcode": "3355"
    },
    {
      "id": "coles-ballarat-5",
      "retailer": "Coles",
      "name": "Coles Daylesford",
      "address": "32 Albert Street &, Bridport St, Daylesford VIC 3460",
      "latitude": -37.3420732,
      "longitude": 144.1418602,
      "suburb": "Ballarat",
      "state": "VIC",
      "postcode": "3460"
    },
    {
      "id": "coles-bendigo-1",
      "retailer": "Coles",
      "name": "Coles Bendigo",
      "address": "Bendigo Shopping Centre Williamson St &, Myers St, Bendigo VIC 3550",
      "latitude": -36.7612469,
      "longitude": 144.2826549,
      "suburb": "Bendigo",
      "state": "VIC",
      "postcode": "3550"
    },
    {
      "id": "coles-bendigo-2",
      "retailer": "Coles",
      "name": "Coles McIvor Rd",
      "address": "Michael St, East Bendigo VIC 3550",
      "latitude": -36.7576058,
      "longitude": 144.2960459,
      "suburb": "Bendigo",
      "state": "VIC",
      "postcode": "3550"
    },
    {
      "id": "coles-bendigo-3",
      "retailer": "Coles",
      "name": "Liquorland Bendigo (Coles)",
      "address": "Shop 4/295 Lyttleton Terrace, Bendigo VIC 3550",
      "latitude": -36.7611353,
      "longitude": 144.2821244,
      "suburb": "Bendigo",
      "state": "VIC",
      "postcode": "3550"
    },
    {
      "id": "coles-bendigo-4",
      "retailer": "Coles",
      "name": "Coles Kangaroo Flat",
      "address": "Lansell Square, 267 - 283 High St, Kangaroo Flat VIC 3555",
      "latitude": -36.8107619,
      "longitude": 144.2434492,
      "suburb": "Bendigo",
      "state": "VIC",
      "postcode": "3555"
    },
    {
      "id": "coles-shepparton-1",
      "retailer": "Coles",
      "name": "Coles Shepparton",
      "address": "Cnr Vaughan St &, Maude St, Shepparton VIC 3630",
      "latitude": -36.3831918,
      "longitude": 145.4007955,
      "suburb": "Shepparton",
      "state": "VIC",
      "postcode": "3630"
    },
    {
      "id": "coles-shepparton-2",
      "retailer": "Coles",
      "name": "Coles Riverside Plaza Kialla",
      "address": "Goulburn Valley Highway, Riverview Dr, Kialla VIC 3631",
      "latitude": -36.4082516,
      "longitude": 145.3911149,
      "suburb": "Shepparton",
      "state": "VIC",
      "postcode": "3631"
    },
    {
      "id": "coles-shepparton-3",
      "retailer": "Coles",
      "name": "Liquorland Shepparton (Coles)",
      "address": "25-31 Vaughan St, Shepparton VIC 3630",
      "latitude": -36.3832573,
      "longitude": 145.40122,
      "suburb": "Shepparton",
      "state": "VIC",
      "postcode": "3630"
    },
    {
      "id": "coles-mildura-1",
      "retailer": "Coles",
      "name": "Coles Mildura (Fifteenth St)",
      "address": "Fifteenth St, Mildura VIC 3500",
      "latitude": -34.2107192,
      "longitude": 142.1399347,
      "suburb": "Mildura",
      "state": "VIC",
      "postcode": "3500"
    },
    {
      "id": "coles-mildura-2",
      "retailer": "Coles",
      "name": "Coles Mildura (Eighth St)",
      "address": "45-65 Lime Ave, Mildura VIC 3500",
      "latitude": -34.1836115,
      "longitude": 142.1596723,
      "suburb": "Mildura",
      "state": "VIC",
      "postcode": "3500"
    },
    {
      "id": "coles-wodonga-1",
      "retailer": "Coles",
      "name": "Coles Albury",
      "address": "Townsend St, Albury NSW 2640",
      "latitude": -36.0813967,
      "longitude": 146.9136191,
      "suburb": "Wodonga",
      "state": "VIC",
      "postcode": ""
    },
    {
      "id": "coles-wodonga-2",
      "retailer": "Coles",
      "name": "Coles Wodonga",
      "address": "Elgin Blvd, Wodonga VIC 3690",
      "latitude": -36.1202487,
      "longitude": 146.8888569,
      "suburb": "Wodonga",
      "state": "VIC",
      "postcode": "3690"
    },
    {
      "id": "coles-wodonga-3",
      "retailer": "Coles",
      "name": "Coles Wodonga Plaza",
      "address": "Elgin St &, Watson St, Wodonga VIC 3690",
      "latitude": -36.121098,
      "longitude": 146.8814355,
      "suburb": "Wodonga",
      "state": "VIC",
      "postcode": "3690"
    },
    {
      "id": "coles-wodonga-4",
      "retailer": "Coles",
      "name": "Coles Birallee Park",
      "address": "99 Melrose Dr, West Wodonga VIC 3690",
      "latitude": -36.1279259,
      "longitude": 146.8640537,
      "suburb": "Wodonga",
      "state": "VIC",
      "postcode": "3690"
    },
    {
      "id": "coles-wodonga-5",
      "retailer": "Coles",
      "name": "Coles Lavington",
      "address": "Griffith Rd &, Urana Rd, Lavington NSW 2641",
      "latitude": -36.0498642,
      "longitude": 146.9327768,
      "suburb": "Wodonga",
      "state": "VIC",
      "postcode": ""
    },
    {
      "id": "coles-wodonga-6",
      "retailer": "Coles",
      "name": "Liquorland Wodonga (Coles)",
      "address": "1/13 South St, Wodonga VIC 3690",
      "latitude": -36.1193227,
      "longitude": 146.8903214,
      "suburb": "Wodonga",
      "state": "VIC",
      "postcode": "3690"
    },
    {
      "id": "coles-wodonga-7",
      "retailer": "Coles",
      "name": "Shell Coles Express Albury",
      "address": "465 Guinea St (Corner, David St, Albury NSW 2640",
      "latitude": -36.0750939,
      "longitude": 146.9212497,
      "suburb": "Wodonga",
      "state": "VIC",
      "postcode": ""
    },
    {
      "id": "coles-wodonga-8",
      "retailer": "Coles",
      "name": "Coles Thurgoona Village",
      "address": "30 Diamond Dr, Thurgoona NSW 2640",
      "latitude": -36.04463,
      "longitude": 146.99661,
      "suburb": "Wodonga",
      "state": "VIC",
      "postcode": ""
    },
    {
      "id": "coles-wodonga-9",
      "retailer": "Coles",
      "name": "Shell Coles Express Albury North",
      "address": "575 Wagga Rd, Lavington NSW 2641",
      "latitude": -36.0367651,
      "longitude": 146.9634172,
      "suburb": "Wodonga",
      "state": "VIC",
      "postcode": ""
    },
    {
      "id": "coles-warrnambool-1",
      "retailer": "Coles",
      "name": "Coles Warrnambool (Lava St)",
      "address": "130 Lava St, Warrnambool VIC 3280",
      "latitude": -38.3816802,
      "longitude": 142.4837758,
      "suburb": "Warrnambool",
      "state": "VIC",
      "postcode": "3280"
    },
    {
      "id": "coles-warrnambool-2",
      "retailer": "Coles",
      "name": "Coles Warrnambool",
      "address": "Armada Gateway Plaza, 150 Raglan Parade, Warrnambool VIC 3280",
      "latitude": -38.3807256,
      "longitude": 142.5209346,
      "suburb": "Warrnambool",
      "state": "VIC",
      "postcode": "3280"
    },
    {
      "id": "coles-warrnambool-3",
      "retailer": "Coles",
      "name": "Coles Northpoint",
      "address": "72/80 Hopkins Hwy, Warrnambool VIC 3280",
      "latitude": -38.3685728,
      "longitude": 142.495188,
      "suburb": "Warrnambool",
      "state": "VIC",
      "postcode": "3280"
    },
    {
      "id": "coles-traralgon-1",
      "retailer": "Coles",
      "name": "Coles Morwell",
      "address": "82 George St, Morwell VIC 3840",
      "latitude": -38.2393419,
      "longitude": 146.3981984,
      "suburb": "Traralgon",
      "state": "VIC",
      "postcode": "3840"
    },
    {
      "id": "coles-traralgon-2",
      "retailer": "Coles",
      "name": "Coles Traralgon",
      "address": "Franklin St, Traralgon VIC 3844",
      "latitude": -38.1940762,
      "longitude": 146.5400312,
      "suburb": "Traralgon",
      "state": "VIC",
      "postcode": "3844"
    },
    {
      "id": "coles-traralgon-3",
      "retailer": "Coles",
      "name": "Coles Traralgon Village",
      "address": "2 Marshalls Rd, Traralgon VIC 3844",
      "latitude": -38.1799084,
      "longitude": 146.5619782,
      "suburb": "Traralgon",
      "state": "VIC",
      "postcode": "3844"
    },
    {
      "id": "coles-traralgon-4",
      "retailer": "Coles",
      "name": "Coles Moe",
      "address": "92 Albert St, Moe VIC 3825",
      "latitude": -38.1736918,
      "longitude": 146.2589717,
      "suburb": "Traralgon",
      "state": "VIC",
      "postcode": "3825"
    },
    {
      "id": "coles-sale-1",
      "retailer": "Coles",
      "name": "Coles Sale",
      "address": "Cunninghame St, Sale VIC 3850",
      "latitude": -38.106631,
      "longitude": 147.0643861,
      "suburb": "Sale",
      "state": "VIC",
      "postcode": "3850"
    },
    {
      "id": "coles-moe-1",
      "retailer": "Coles",
      "name": "Coles Warragul",
      "address": "30 Palmerston St Centrepoint Shopping Centre (VIC, Warragul VIC 3820",
      "latitude": -38.1622924,
      "longitude": 145.9322052,
      "suburb": "Moe",
      "state": "VIC",
      "postcode": "3820"
    },
    {
      "id": "coles-echuca-1",
      "retailer": "Coles",
      "name": "Coles Echuca",
      "address": "3564, Victoria, Echuca, Hare St, Cnr Darling Street &",
      "latitude": -36.1309091,
      "longitude": 144.7493839,
      "suburb": "Echuca",
      "state": "VIC",
      "postcode": "3564"
    },
    {
      "id": "coles-wangaratta-1",
      "retailer": "Coles",
      "name": "Coles Wangaratta",
      "address": "Ryley St & Greta Rd, Wangaratta Kmart Plaza, Wangaratta VIC 3677",
      "latitude": -36.3600303,
      "longitude": 146.3177633,
      "suburb": "Wangaratta",
      "state": "VIC",
      "postcode": "3677"
    },
    {
      "id": "coles-wangaratta-2",
      "retailer": "Coles",
      "name": "Coles Supermarket",
      "address": "Wangaratta VIC 3677",
      "latitude": -36.3600346,
      "longitude": 146.3182437,
      "suburb": "Wangaratta",
      "state": "VIC",
      "postcode": "3677"
    },
    {
      "id": "coles-wangaratta-3",
      "retailer": "Coles",
      "name": "Coles Benalla",
      "address": "45/49 Carrier St, Benalla VIC 3672",
      "latitude": -36.5497243,
      "longitude": 145.9857448,
      "suburb": "Wangaratta",
      "state": "VIC",
      "postcode": "3672"
    },
    {
      "id": "coles-bairnsdale-1",
      "retailer": "Coles",
      "name": "Coles Bairnsdale",
      "address": "96/118 Main St, Bairnsdale VIC 3875",
      "latitude": -37.8250885,
      "longitude": 147.632492,
      "suburb": "Bairnsdale",
      "state": "VIC",
      "postcode": "3875"
    },
    {
      "id": "coles-stawell-1",
      "retailer": "Coles",
      "name": "Coles Horsham",
      "address": "Cnr Darlot Street &, Roberts Ave, Horsham VIC 3400",
      "latitude": -36.7139957,
      "longitude": 142.1976549,
      "suburb": "Stawell",
      "state": "VIC",
      "postcode": "3400"
    },
    {
      "id": "coles-drouin-1",
      "retailer": "Coles",
      "name": "Coles Drouin",
      "address": "Young St, Drouin VIC 3818",
      "latitude": -38.13433,
      "longitude": 145.8559966,
      "suburb": "Drouin",
      "state": "VIC",
      "postcode": "3818"
    },
    {
      "id": "coles-drouin-2",
      "retailer": "Coles",
      "name": "Coles Cardinia Lakes",
      "address": "Windermere Blvd, Pakenham VIC 3810",
      "latitude": -38.0631438,
      "longitude": 145.5067686,
      "suburb": "Drouin",
      "state": "VIC",
      "postcode": "3810"
    },
    {
      "id": "coles-drouin-3",
      "retailer": "Coles",
      "name": "Coles Heritage Springs",
      "address": "Henry Rd, Pakenham VIC 3810",
      "latitude": -38.0857423,
      "longitude": 145.4708843,
      "suburb": "Drouin",
      "state": "VIC",
      "postcode": "3810"
    },
    {
      "id": "coles-drouin-4",
      "retailer": "Coles",
      "name": "Coles Village Lakeside",
      "address": "Lakeside Blvd &, Princes Hwy, Pakenham VIC 3810",
      "latitude": -38.0635255,
      "longitude": 145.4554638,
      "suburb": "Drouin",
      "state": "VIC",
      "postcode": "3810"
    },
    {
      "id": "coles-leongatha-1",
      "retailer": "Coles",
      "name": "Coles Wonthaggi",
      "address": "2 Biggs Dr, Wonthaggi VIC 3995",
      "latitude": -38.6036665,
      "longitude": 145.5862125,
      "suburb": "Leongatha",
      "state": "VIC",
      "postcode": "3995"
    },
    {
      "id": "coles-oceangrove-1",
      "retailer": "Coles",
      "name": "Coles Ocean Grove",
      "address": "77 The Terrace, Ocean Grove VIC 3226",
      "latitude": -38.2674857,
      "longitude": 144.5239471,
      "suburb": "Ocean Grove",
      "state": "VIC",
      "postcode": "3226"
    },
    {
      "id": "coles-oceangrove-2",
      "retailer": "Coles",
      "name": "Coles Drysdale",
      "address": "32 Murradoc Rd, Drysdale VIC 3222",
      "latitude": -38.1741705,
      "longitude": 144.5729274,
      "suburb": "Ocean Grove",
      "state": "VIC",
      "postcode": "3222"
    },
    {
      "id": "coles-oceangrove-3",
      "retailer": "Coles",
      "name": "Coles Torquay",
      "address": "41 Bristol Rd, Torquay VIC 3228",
      "latitude": -38.3315808,
      "longitude": 144.3200005,
      "suburb": "Ocean Grove",
      "state": "VIC",
      "postcode": "3228"
    },
    {
      "id": "coles-lara-1",
      "retailer": "Coles",
      "name": "Coles Lara",
      "address": "Waverley Rd, Lara VIC 3212",
      "latitude": -38.0235576,
      "longitude": 144.4105052,
      "suburb": "Lara",
      "state": "VIC",
      "postcode": "3212"
    },
    {
      "id": "coles-lara-2",
      "retailer": "Coles",
      "name": "Coles Lara: Car Park",
      "address": "Lara VIC 3212",
      "latitude": -38.0232107,
      "longitude": 144.4097502,
      "suburb": "Lara",
      "state": "VIC",
      "postcode": "3212"
    },
    {
      "id": "coles-lara-3",
      "retailer": "Coles",
      "name": "Coles Harpley",
      "address": "Harpley Town Centre, 2 Bradfield St, Werribee VIC 3030",
      "latitude": -37.9115911,
      "longitude": 144.6147383,
      "suburb": "Lara",
      "state": "VIC",
      "postcode": "3030"
    },
    {
      "id": "coles-lara-4",
      "retailer": "Coles",
      "name": "Coles Manor Lakes",
      "address": "Central Shopping Centre, 8 Manor Lakes Blvd, Manor Lakes VIC 3024",
      "latitude": -37.8760356,
      "longitude": 144.6145046,
      "suburb": "Lara",
      "state": "VIC",
      "postcode": "3024"
    },
    {
      "id": "coles-healesville-1",
      "retailer": "Coles",
      "name": "Coles Healesville",
      "address": "Walk Shopping Centre, 251 Maroondah Hwy, Healesville VIC 3777",
      "latitude": -37.6527333,
      "longitude": 145.5182833,
      "suburb": "Healesville",
      "state": "VIC",
      "postcode": "3777"
    },
    {
      "id": "coles-bright-1",
      "retailer": "Coles",
      "name": "Coles Myrtleford",
      "address": "37 Clyde St, Myrtleford VIC 3737",
      "latitude": -36.5615347,
      "longitude": 146.7262929,
      "suburb": "Bright",
      "state": "VIC",
      "postcode": "3737"
    },
    {
      "id": "coles-mountbeauty-1",
      "retailer": "Coles",
      "name": "Coles Hamilton",
      "address": "179-193 Gray St, Hamilton VIC 3300",
      "latitude": -37.7416954,
      "longitude": 142.0250396,
      "suburb": "Mount Beauty",
      "state": "VIC",
      "postcode": "3300"
    },
    {
      "id": "coles-lorne-1",
      "retailer": "Coles",
      "name": "Coles Colac",
      "address": "Corner Of Bromfield Street And, Queen St, Colac VIC 3250",
      "latitude": -38.3408205,
      "longitude": 143.5937085,
      "suburb": "Lorne",
      "state": "VIC",
      "postcode": "3250"
    },
    {
      "id": "coles-cobram-1",
      "retailer": "Coles",
      "name": "Coles Cobram",
      "address": "4 Cobram-Koonoomoo Rd, Cobram VIC 3644",
      "latitude": -35.919752,
      "longitude": 145.642036,
      "suburb": "Cobram",
      "state": "VIC",
      "postcode": "3644"
    },
    {
      "id": "coles-kerang-1",
      "retailer": "Coles",
      "name": "Coles Swan Hill",
      "address": "Beveridge St & McCrae St Swan Hill Square, Swan Hill VIC 3585",
      "latitude": -35.3405398,
      "longitude": 143.5579292,
      "suburb": "Kerang",
      "state": "VIC",
      "postcode": "3585"
    },
    {
      "id": "coles-robinvale-1",
      "retailer": "Coles",
      "name": "Coles Mount Gambier",
      "address": "11 Ferrers St, Mount Gambier SA 5290",
      "latitude": -37.8304972,
      "longitude": 140.7827975,
      "suburb": "Robinvale",
      "state": "VIC",
      "postcode": ""
    }
  ]
}
